{
"type": "FeatureCollection",
"name": "HawkerCentres_cleaned",
"crs": { "type": "name", "properties": { "name": "urn:ogc:def:crs:OGC:1.3:CRS84" } },
"features": [
{ "type": "Feature", "properties": { "Name": "kml_1", "Hawker_Name": "Market Street Hawker Centre " }, "geometry": { "type": "Point", "coordinates": [ 103.850164578087004, 1.2844248503218, 0.0 ] } },
{ "type": "Feature", "properties": { "Name": "kml_2", "Hawker_Name": "Marsiling Mall Hawker Centre " }, "geometry": { "type": "Point", "coordinates": [ 103.779784899996002, 1.43353885680037, 0.0 ] } },
{ "type": "Feature", "properties": { "Name": "kml_3", "Hawker_Name": "Margaret Drive Hawker Centre " }, "geometry": { "type": "Point", "coordinates": [ 103.804715225284994, 1.29748567106686, 0.0 ] } },
{ "type": "Feature", "properties": { "Name": "kml_4", "Hawker_Name": "Fernvale Hawker Centre & Market " }, "geometry": { "type": "Point", "coordinates": [ 103.877060478847, 1.39159232727757, 0.0 ] } },
{ "type": "Feature", "properties": { "Name": "kml_5", "Hawker_Name": "One Punggol Hawker Centre " }, "geometry": { "type": "Point", "coordinates": [ 103.904805657576006, 1.40818996870647, 0.0 ] } },
{ "type": "Feature", "properties": { "Name": "kml_6", "Hawker_Name": "Bukit Canberra Hawker Centre " }, "geometry": { "type": "Point", "coordinates": [ 103.822484958307001, 1.44901674160031, 0.0 ] } },
{ "type": "Feature", "properties": { "Name": "kml_7", "Hawker_Name": "Senja Hawker Centre " }, "geometry": { "type": "Point", "coordinates": [ 103.761017756803994, 1.38713573069818, 0.0 ] } },
{ "type": "Feature", "properties": { "Name": "kml_8", "Hawker_Name": "Buangkok Hawker Centre " }, "geometry": { "type": "Point", "coordinates": [ 103.892403203249003, 1.38238755827879, 0.0 ] } },
{ "type": "Feature", "properties": { "Name": "kml_9", "Hawker_Name": "Bukit Batok West Hawker Centre " }, "geometry": { "type": "Point", "coordinates": [ 103.741825836535995, 1.35521457121361, 0.0 ] } },
{ "type": "Feature", "properties": { "Name": "kml_10", "Hawker_Name": "Telok Blangah Hawker Centre & Market " }, "geometry": { "type": "Point", "coordinates": [ 103.808078713674007, 1.27324863952078, 0.0 ] } },
{ "type": "Feature", "properties": { "Name": "kml_11", "Hawker_Name": "Bedok North Street 3 Blk 538 " }, "geometry": { "type": "Point", "coordinates": [ 103.924844235397998, 1.33178125123252, 0.0 ] } },
{ "type": "Feature", "properties": { "Name": "kml_12", "Hawker_Name": "Bedok North Street 4 Blk 85 (85 Fengshan Centre) " }, "geometry": { "type": "Point", "coordinates": [ 103.938732580554003, 1.33198706861747, 0.0 ] } },
{ "type": "Feature", "properties": { "Name": "kml_13", "Hawker_Name": "Adam Road Food Centre " }, "geometry": { "type": "Point", "coordinates": [ 103.814165010384002, 1.32413422253318, 0.0 ] } },
{ "type": "Feature", "properties": { "Name": "kml_14", "Hawker_Name": "Aljunied Ave 2 Blk 117 (Blk 117 Aljunied Market and Food Centre) " }, "geometry": { "type": "Point", "coordinates": [ 103.887019026109996, 1.32064829234987, 0.0 ] } },
{ "type": "Feature", "properties": { "Name": "kml_15", "Hawker_Name": "Amoy Street Food Centre (Telok Ayer Food Centre) " }, "geometry": { "type": "Point", "coordinates": [ 103.846606784092003, 1.27921844263269, 0.0 ] } },
{ "type": "Feature", "properties": { "Name": "kml_16", "Hawker_Name": "Ang Mo Kio Ave 1 Blk 226D (Kebun Baru Market and Food Centre) " }, "geometry": { "type": "Point", "coordinates": [ 103.839231344065993, 1.36678764523637, 0.0 ] } },
{ "type": "Feature", "properties": { "Name": "kml_17", "Hawker_Name": "Ang Mo Kio Ave 1 Blk 341 (Teck Ghee Court) " }, "geometry": { "type": "Point", "coordinates": [ 103.848254220437994, 1.36410517096399, 0.0 ] } },
{ "type": "Feature", "properties": { "Name": "kml_18", "Hawker_Name": "Ang Mo Kio Ave 10 Blk 409 (Teck Ghee Square) " }, "geometry": { "type": "Point", "coordinates": [ 103.855369790045003, 1.36276891777383, 0.0 ] } },
{ "type": "Feature", "properties": { "Name": "kml_19", "Hawker_Name": "Ang Mo Kio Ave 10 Blk 453A (Chong Boon Market and Food Centre) " }, "geometry": { "type": "Point", "coordinates": [ 103.856351437414006, 1.36824049310006, 0.0 ] } },
{ "type": "Feature", "properties": { "Name": "kml_20", "Hawker_Name": "Ang Mo Kio Ave 10 Blk 527 (Cheng San Market and Cooked Food Centre) " }, "geometry": { "type": "Point", "coordinates": [ 103.854482811590998, 1.37276992816898, 0.0 ] } },
{ "type": "Feature", "properties": { "Name": "kml_21", "Hawker_Name": "Ang Mo Kio Ave 4 Blk 160/162 (Mayflower Market) " }, "geometry": { "type": "Point", "coordinates": [ 103.839214290038001, 1.37448912101909, 0.0 ] } },
{ "type": "Feature", "properties": { "Name": "kml_22", "Hawker_Name": "Ang Mo Kio Ave 4 Blk 628 (Ang Mo Kio 628 Market) " }, "geometry": { "type": "Point", "coordinates": [ 103.840682307297001, 1.38102486670548, 0.0 ] } },
{ "type": "Feature", "properties": { "Name": "kml_23", "Hawker_Name": "Ang Mo Kio Ave 6 Blk 724 (Blk 724 Ang Mo Kio Market) " }, "geometry": { "type": "Point", "coordinates": [ 103.846519219268004, 1.37219743270045, 0.0 ] } },
{ "type": "Feature", "properties": { "Name": "kml_24", "Hawker_Name": "Ang Mo Kio Street 22 Blk 226H (Kebun Baru Food Centre) " }, "geometry": { "type": "Point", "coordinates": [ 103.839953165935995, 1.36723014879667, 0.0 ] } },
{ "type": "Feature", "properties": { "Name": "kml_25", "Hawker_Name": "Bedok Food Centre " }, "geometry": { "type": "Point", "coordinates": [ 103.955474150677006, 1.32035600765426, 0.0 ] } },
{ "type": "Feature", "properties": { "Name": "kml_26", "Hawker_Name": "Bedok North Street 1 Blk 216 " }, "geometry": { "type": "Point", "coordinates": [ 103.933221544751007, 1.32706240888967, 0.0 ] } },
{ "type": "Feature", "properties": { "Name": "kml_27", "Hawker_Name": "Bedok North Street 3 Blk 511 (Kaki Bukit 511 Market and Food Centre) " }, "geometry": { "type": "Point", "coordinates": [ 103.930602144469006, 1.33324627868937, 0.0 ] } },
{ "type": "Feature", "properties": { "Name": "kml_28", "Hawker_Name": "Bedok Reservoir Road Blk 630 " }, "geometry": { "type": "Point", "coordinates": [ 103.914053888309994, 1.33315924777343, 0.0 ] } },
{ "type": "Feature", "properties": { "Name": "kml_29", "Hawker_Name": "Bedok South Road Blk 16 " }, "geometry": { "type": "Point", "coordinates": [ 103.935539096349999, 1.32055216480957, 0.0 ] } },
{ "type": "Feature", "properties": { "Name": "kml_30", "Hawker_Name": "Bendemeer Road Blk 29 (Bendemeer Market and Food Centre) " }, "geometry": { "type": "Point", "coordinates": [ 103.863021377530998, 1.31921699786807, 0.0 ] } },
{ "type": "Feature", "properties": { "Name": "kml_31", "Hawker_Name": "Beo Crescent Market " }, "geometry": { "type": "Point", "coordinates": [ 103.827358017197, 1.28882210205212, 0.0 ] } },
{ "type": "Feature", "properties": { "Name": "kml_32", "Hawker_Name": "Berseh Food Centre " }, "geometry": { "type": "Point", "coordinates": [ 103.856853966616995, 1.30733651651517, 0.0 ] } },
{ "type": "Feature", "properties": { "Name": "kml_33", "Hawker_Name": "Boon Lay Place Blk 221A/B (Boon Lay Place Market and Food Village) " }, "geometry": { "type": "Point", "coordinates": [ 103.712799765872006, 1.3452231627967, 0.0 ] } },
{ "type": "Feature", "properties": { "Name": "kml_34", "Hawker_Name": "Buffalo Road Blk 665 (Tekka Centre/Zhu Jiao Market) " }, "geometry": { "type": "Point", "coordinates": [ 103.850530969624003, 1.30620584090733, 0.0 ] } },
{ "type": "Feature", "properties": { "Name": "kml_35", "Hawker_Name": "Bukit Merah Central Blk 163 (Bukit Merah Central Food Centre) " }, "geometry": { "type": "Point", "coordinates": [ 103.816992390294999, 1.28369258928085, 0.0 ] } },
{ "type": "Feature", "properties": { "Name": "kml_36", "Hawker_Name": "Bukit Merah Lane 1 Blk 120 (Alexandra Village Food Centre) " }, "geometry": { "type": "Point", "coordinates": [ 103.804489277778998, 1.28629777221659, 0.0 ] } },
{ "type": "Feature", "properties": { "Name": "kml_37", "Hawker_Name": "Bukit Merah View Blk 115 (Blk 115 Bukit Merah View Market and Food Centre) " }, "geometry": { "type": "Point", "coordinates": [ 103.822049361292002, 1.28550478314618, 0.0 ] } },
{ "type": "Feature", "properties": { "Name": "kml_38", "Hawker_Name": "Bukit Panjang Hawker Centre " }, "geometry": { "type": "Point", "coordinates": [ 103.772489583205996, 1.37760053528611, 0.0 ] } },
{ "type": "Feature", "properties": { "Name": "kml_39", "Hawker_Name": "Bukit Timah Market " }, "geometry": { "type": "Point", "coordinates": [ 103.775995008012003, 1.33937596351523, 0.0 ] } },
{ "type": "Feature", "properties": { "Name": "kml_40", "Hawker_Name": "Cambridge Road Blk 41A (Pek Kio Market and Food Centre) " }, "geometry": { "type": "Point", "coordinates": [ 103.850225081030999, 1.31615991374589, 0.0 ] } },
{ "type": "Feature", "properties": { "Name": "kml_41", "Hawker_Name": "Changi Village Blk 2 and 3 " }, "geometry": { "type": "Point", "coordinates": [ 103.988245749103001, 1.38915172065006, 0.0 ] } },
{ "type": "Feature", "properties": { "Name": "kml_42", "Hawker_Name": "Chomp Chomp Food Centre " }, "geometry": { "type": "Point", "coordinates": [ 103.866536130298996, 1.36422852315868, 0.0 ] } },
{ "type": "Feature", "properties": { "Name": "kml_43", "Hawker_Name": "Ci Yuan Hawker Centre " }, "geometry": { "type": "Point", "coordinates": [ 103.882977999396999, 1.37542896666561, 0.0 ] } },
{ "type": "Feature", "properties": { "Name": "kml_44", "Hawker_Name": "Circuit Road Blk 79/79A " }, "geometry": { "type": "Point", "coordinates": [ 103.885043500018995, 1.32644992167231, 0.0 ] } },
{ "type": "Feature", "properties": { "Name": "kml_45", "Hawker_Name": "Circuit Road Blk 80 (80 Circuit Road Market and Food Centre) " }, "geometry": { "type": "Point", "coordinates": [ 103.887128535136995, 1.32784956142548, 0.0 ] } },
{ "type": "Feature", "properties": { "Name": "kml_46", "Hawker_Name": "Circuit Road Blk 89 " }, "geometry": { "type": "Point", "coordinates": [ 103.885449224256007, 1.32344525333847, 0.0 ] } },
{ "type": "Feature", "properties": { "Name": "kml_47", "Hawker_Name": "Clementi Ave 2 Blk 353 (Clementi Ave 2 Market/Cooked Food Centre) " }, "geometry": { "type": "Point", "coordinates": [ 103.770836740842995, 1.31436772839327, 0.0 ] } },
{ "type": "Feature", "properties": { "Name": "kml_48", "Hawker_Name": "Clementi Ave 3 Blk 448 " }, "geometry": { "type": "Point", "coordinates": [ 103.764510533077996, 1.31326486994113, 0.0 ] } },
{ "type": "Feature", "properties": { "Name": "kml_49", "Hawker_Name": "Clementi West Street 2 Blk 726 " }, "geometry": { "type": "Point", "coordinates": [ 103.764264410292995, 1.3037819726711, 0.0 ] } },
{ "type": "Feature", "properties": { "Name": "kml_50", "Hawker_Name": "Commonwealth Crescent Market " }, "geometry": { "type": "Point", "coordinates": [ 103.800362825516999, 1.3068922760844, 0.0 ] } },
{ "type": "Feature", "properties": { "Name": "kml_51", "Hawker_Name": "Commonwealth Drive Blk 1A/2A/3A (Tanglin Halt Food Centre/Commonwealth Drive Food Centre) " }, "geometry": { "type": "Point", "coordinates": [ 103.797875477439007, 1.29971330531884, 0.0 ] } },
{ "type": "Feature", "properties": { "Name": "kml_52", "Hawker_Name": "Dunman Food Centre " }, "geometry": { "type": "Point", "coordinates": [ 103.901825147210005, 1.30941418731185, 0.0 ] } },
{ "type": "Feature", "properties": { "Name": "kml_53", "Hawker_Name": "East Coast Lagoon Food Village " }, "geometry": { "type": "Point", "coordinates": [ 103.935016747248994, 1.30668431820832, 0.0 ] } },
{ "type": "Feature", "properties": { "Name": "kml_54", "Hawker_Name": "Empress Road Blk 7 (Empress Road Market and Food Centre) " }, "geometry": { "type": "Point", "coordinates": [ 103.805636386821007, 1.31624573118373, 0.0 ] } },
{ "type": "Feature", "properties": { "Name": "kml_55", "Hawker_Name": "Geylang Bahru Blk 69 (Blk 69 Geylang Bahru Market and Food Centre) " }, "geometry": { "type": "Point", "coordinates": [ 103.870004415151996, 1.32146226027018, 0.0 ] } },
{ "type": "Feature", "properties": { "Name": "kml_56", "Hawker_Name": "Geylang Serai Market " }, "geometry": { "type": "Point", "coordinates": [ 103.898224315880995, 1.3167281476983, 0.0 ] } },
{ "type": "Feature", "properties": { "Name": "kml_57", "Hawker_Name": "Ghim Moh Road Blk 20 " }, "geometry": { "type": "Point", "coordinates": [ 103.788230657144993, 1.31099627311591, 0.0 ] } },
{ "type": "Feature", "properties": { "Name": "kml_58", "Hawker_Name": "Golden Mile Food Centre " }, "geometry": { "type": "Point", "coordinates": [ 103.863883249984994, 1.30287548090781, 0.0 ] } },
{ "type": "Feature", "properties": { "Name": "kml_59", "Hawker_Name": "Haig Road Blk 13/14 (Haig Road Market and Cooked Food Centre) " }, "geometry": { "type": "Point", "coordinates": [ 103.895609494854995, 1.3151420505272, 0.0 ] } },
{ "type": "Feature", "properties": { "Name": "kml_60", "Hawker_Name": "Havelock Road Blk 22A/B (Havelock Road Cooked Food Centre) " }, "geometry": { "type": "Point", "coordinates": [ 103.829626834636997, 1.28797543998733, 0.0 ] } },
{ "type": "Feature", "properties": { "Name": "kml_61", "Hawker_Name": "Hawker Centre @ Our Tampines Hub " }, "geometry": { "type": "Point", "coordinates": [ 103.939726160039001, 1.35386211773287, 0.0 ] } },
{ "type": "Feature", "properties": { "Name": "kml_62", "Hawker_Name": "Shunfu Road Blk 320 (Shunfu Mart) " }, "geometry": { "type": "Point", "coordinates": [ 103.837031803822995, 1.35200744198417, 0.0 ] } },
{ "type": "Feature", "properties": { "Name": "kml_63", "Hawker_Name": "Sims Place Blk 49 (Sims Vista Market and Food Centre) " }, "geometry": { "type": "Point", "coordinates": [ 103.879417030672997, 1.31708335109103, 0.0 ] } },
{ "type": "Feature", "properties": { "Name": "kml_64", "Hawker_Name": "Smith Street Blk 335 (Chinatown Complex Market) " }, "geometry": { "type": "Point", "coordinates": [ 103.843177616296003, 1.28223514826381, 0.0 ] } },
{ "type": "Feature", "properties": { "Name": "kml_65", "Hawker_Name": "Taman Jurong Market and Food Centre " }, "geometry": { "type": "Point", "coordinates": [ 103.721519868629002, 1.33458935951076, 0.0 ] } },
{ "type": "Feature", "properties": { "Name": "kml_66", "Hawker_Name": "Tampines Street 11 Blk 137 (Tampines Round Market and Food Centre) " }, "geometry": { "type": "Point", "coordinates": [ 103.944624481150996, 1.3456395210229, 0.0 ] } },
{ "type": "Feature", "properties": { "Name": "kml_67", "Hawker_Name": "Tanglin Halt Market " }, "geometry": { "type": "Point", "coordinates": [ 103.797625756738, 1.30078931480841, 0.0 ] } },
{ "type": "Feature", "properties": { "Name": "kml_68", "Hawker_Name": "Tanjong Pagar Plaza Blk 6 (Blk 6 Tanjong Pagar Plaza Market and Food Centre) " }, "geometry": { "type": "Point", "coordinates": [ 103.843166992137995, 1.27661461066321, 0.0 ] } },
{ "type": "Feature", "properties": { "Name": "kml_69", "Hawker_Name": "Teban Gardens Road Blk 37A (Teban Gardens Market and Food Centre) " }, "geometry": { "type": "Point", "coordinates": [ 103.742891623681004, 1.32084835041654, 0.0 ] } },
{ "type": "Feature", "properties": { "Name": "kml_70", "Hawker_Name": "Telok Blangah Crescent Blk 11 (11 Telok Blangah Crescent Market and Food Centre) " }, "geometry": { "type": "Point", "coordinates": [ 103.818641695105995, 1.27736683810318, 0.0 ] } },
{ "type": "Feature", "properties": { "Name": "kml_71", "Hawker_Name": "Eunos Crescent Blk 4A " }, "geometry": { "type": "Point", "coordinates": [ 103.904260878989007, 1.32033178221424, 0.0 ] } },
{ "type": "Feature", "properties": { "Name": "kml_72", "Hawker_Name": "Telok Blangah Drive Blk 79 (Telok Blangah Food Centre) " }, "geometry": { "type": "Point", "coordinates": [ 103.807626838953993, 1.27336828250285, 0.0 ] } },
{ "type": "Feature", "properties": { "Name": "kml_73", "Hawker_Name": "Zion Riverside Food Centre " }, "geometry": { "type": "Point", "coordinates": [ 103.831189303545997, 1.29234216757957, 0.0 ] } },
{ "type": "Feature", "properties": { "Name": "kml_74", "Hawker_Name": "Woodleigh Village Hawker Centre " }, "geometry": { "type": "Point", "coordinates": [ 103.872090241566994, 1.3397961360031, 0.0 ] } },
{ "type": "Feature", "properties": { "Name": "kml_75", "Hawker_Name": "Anchorvale Village Hawker Centre " }, "geometry": { "type": "Point", "coordinates": [ 103.888489618777001, 1.39691417603694, 0.0 ] } },
{ "type": "Feature", "properties": { "Name": "kml_76", "Hawker_Name": "Punggol Digital District Hawker Centre " }, "geometry": { "type": "Point", "coordinates": [ 103.908252830308996, 1.41456688638677, 0.0 ] } },
{ "type": "Feature", "properties": { "Name": "kml_77", "Hawker_Name": "Holland Drive Blk 44 (Holland Drive Market and Food Centre) " }, "geometry": { "type": "Point", "coordinates": [ 103.792773765462996, 1.30811775909823, 0.0 ] } },
{ "type": "Feature", "properties": { "Name": "kml_78", "Hawker_Name": "Holland Village Market and Food Centre " }, "geometry": { "type": "Point", "coordinates": [ 103.794862936127004, 1.31090802808558, 0.0 ] } },
{ "type": "Feature", "properties": { "Name": "kml_79", "Hawker_Name": "Hougang Ave 1 Blk 105 (Hougang 105 Hainanese Village Centre) " }, "geometry": { "type": "Point", "coordinates": [ 103.890081064952994, 1.35383739101169, 0.0 ] } },
{ "type": "Feature", "properties": { "Name": "kml_80", "Hawker_Name": "Hougang Street 21 Blk 209 (Kovan Hougang Market and Food Centre) " }, "geometry": { "type": "Point", "coordinates": [ 103.885977616903006, 1.35911942212642, 0.0 ] } },
{ "type": "Feature", "properties": { "Name": "kml_81", "Hawker_Name": "Jalan Batu Blk 4A (Blk 4A Jalan Batu Hawker Centre/Market) " }, "geometry": { "type": "Point", "coordinates": [ 103.883940580219999, 1.30241881353449, 0.0 ] } },
{ "type": "Feature", "properties": { "Name": "kml_82", "Hawker_Name": "Jalan Bukit Merah Blk 112 (Blk 112 Jalan Bukit Merah Market and Food Centre) " }, "geometry": { "type": "Point", "coordinates": [ 103.826013285715007, 1.28000481198881, 0.0 ] } },
{ "type": "Feature", "properties": { "Name": "kml_83", "Hawker_Name": "Jalan Bukit Merah Blk 6 (ABC Brickworks Market/Food Centre) " }, "geometry": { "type": "Point", "coordinates": [ 103.808127999318003, 1.28695275198944, 0.0 ] } },
{ "type": "Feature", "properties": { "Name": "kml_84", "Hawker_Name": "Jalan Kukoh Blk 1 (Kukoh 21 Food Centre) " }, "geometry": { "type": "Point", "coordinates": [ 103.839945947185996, 1.28823055540002, 0.0 ] } },
{ "type": "Feature", "properties": { "Name": "kml_85", "Hawker_Name": "Jurong East Ave 1 Blk 347 (Yuhua Market and Hawker Centre) " }, "geometry": { "type": "Point", "coordinates": [ 103.731579747132002, 1.34531247026793, 0.0 ] } },
{ "type": "Feature", "properties": { "Name": "kml_86", "Hawker_Name": "Jurong East Street 24 Blk 254 (Yuhua Village Market and Food Centre) " }, "geometry": { "type": "Point", "coordinates": [ 103.737781231485002, 1.34344213770991, 0.0 ] } },
{ "type": "Feature", "properties": { "Name": "kml_87", "Hawker_Name": "Jurong West Hawker Centre " }, "geometry": { "type": "Point", "coordinates": [ 103.697404254467003, 1.3412597060095, 0.0 ] } },
{ "type": "Feature", "properties": { "Name": "kml_88", "Hawker_Name": "Jurong West Street 52 Blk 505 " }, "geometry": { "type": "Point", "coordinates": [ 103.718447543630006, 1.34964224318434, 0.0 ] } },
{ "type": "Feature", "properties": { "Name": "kml_89", "Hawker_Name": "Kallang Estate Fresh Market and Food Centre " }, "geometry": { "type": "Point", "coordinates": [ 103.884130183314994, 1.30739616009942, 0.0 ] } },
{ "type": "Feature", "properties": { "Name": "kml_90", "Hawker_Name": "Redhill Lane Blk 85 (Redhill Food Centre) " }, "geometry": { "type": "Point", "coordinates": [ 103.818338919994005, 1.28733076703987, 0.0 ] } },
{ "type": "Feature", "properties": { "Name": "kml_91", "Hawker_Name": "Kampung Admiralty Hawker Centre " }, "geometry": { "type": "Point", "coordinates": [ 103.800696448528996, 1.43993283228134, 0.0 ] } },
{ "type": "Feature", "properties": { "Name": "kml_92", "Hawker_Name": "Marine Parade Central Blk 84 (84 Marine Parade Central Market and Food Centre) " }, "geometry": { "type": "Point", "coordinates": [ 103.906338526157001, 1.30228513841822, 0.0 ] } },
{ "type": "Feature", "properties": { "Name": "kml_93", "Hawker_Name": "Marine Terrace Blk 50A (50A Marine Terrace) " }, "geometry": { "type": "Point", "coordinates": [ 103.915761950556998, 1.30577514781108, 0.0 ] } },
{ "type": "Feature", "properties": { "Name": "kml_94", "Hawker_Name": "Marsiling Lane Blk 20/21 " }, "geometry": { "type": "Point", "coordinates": [ 103.777203165702005, 1.44388181695611, 0.0 ] } },
{ "type": "Feature", "properties": { "Name": "kml_95", "Hawker_Name": "Maxwell Food Centre (Kim Hua Market) " }, "geometry": { "type": "Point", "coordinates": [ 103.844827863123001, 1.28011223513205, 0.0 ] } },
{ "type": "Feature", "properties": { "Name": "kml_96", "Hawker_Name": "Mei Chin Road Blk 159 (Mei Chin Road Market) " }, "geometry": { "type": "Point", "coordinates": [ 103.802903901115997, 1.29323622090658, 0.0 ] } },
{ "type": "Feature", "properties": { "Name": "kml_97", "Hawker_Name": "New Market Road Blk 32 (People's Park Food Centre) " }, "geometry": { "type": "Point", "coordinates": [ 103.842578750106995, 1.28499102169498, 0.0 ] } },
{ "type": "Feature", "properties": { "Name": "kml_98", "Hawker_Name": "New Upper Changi Road Blk 208B " }, "geometry": { "type": "Point", "coordinates": [ 103.930560478230007, 1.32473884451035, 0.0 ] } },
{ "type": "Feature", "properties": { "Name": "kml_99", "Hawker_Name": "New Upper Changi Road Blk 58 " }, "geometry": { "type": "Point", "coordinates": [ 103.941132372618995, 1.32418782817919, 0.0 ] } },
{ "type": "Feature", "properties": { "Name": "kml_100", "Hawker_Name": "Newton Food Centre " }, "geometry": { "type": "Point", "coordinates": [ 103.839562687644005, 1.31189235691653, 0.0 ] } },
{ "type": "Feature", "properties": { "Name": "kml_101", "Hawker_Name": "North Bridge Road Market " }, "geometry": { "type": "Point", "coordinates": [ 103.863891012338001, 1.30576537802761, 0.0 ] } },
{ "type": "Feature", "properties": { "Name": "kml_102", "Hawker_Name": "Old Airport Road Blk 51 (51 Old Airport Road Food Centre and Shopping Mall) " }, "geometry": { "type": "Point", "coordinates": [ 103.885833217726997, 1.30825156309798, 0.0 ] } },
{ "type": "Feature", "properties": { "Name": "kml_103", "Hawker_Name": "Pasir Panjang Food Centre " }, "geometry": { "type": "Point", "coordinates": [ 103.791402660553004, 1.27590752450201, 0.0 ] } },
{ "type": "Feature", "properties": { "Name": "kml_104", "Hawker_Name": "Pasir Ris Central Hawker Centre " }, "geometry": { "type": "Point", "coordinates": [ 103.951543034782006, 1.37343413973246, 0.0 ] } },
{ "type": "Feature", "properties": { "Name": "kml_105", "Hawker_Name": "Queen Street Blk 270 (Albert Centre) " }, "geometry": { "type": "Point", "coordinates": [ 103.854211645499007, 1.30100146521405, 0.0 ] } },
{ "type": "Feature", "properties": { "Name": "kml_106", "Hawker_Name": "Redhill Lane Blk 79 (Redhill Market) " }, "geometry": { "type": "Point", "coordinates": [ 103.818402623449003, 1.2878581025663, 0.0 ] } },
{ "type": "Feature", "properties": { "Name": "kml_107", "Hawker_Name": "Sembawang Hills Food Centre (Jalan Leban Food Centre) " }, "geometry": { "type": "Point", "coordinates": [ 103.828994204341996, 1.37238494002145, 0.0 ] } },
{ "type": "Feature", "properties": { "Name": "kml_108", "Hawker_Name": "Serangoon Garden Market " }, "geometry": { "type": "Point", "coordinates": [ 103.866737484645995, 1.3631571201113, 0.0 ] } },
{ "type": "Feature", "properties": { "Name": "kml_109", "Hawker_Name": "Telok Blangah Drive Blk 82 (Telok Blangah Market) " }, "geometry": { "type": "Point", "coordinates": [ 103.807943567416004, 1.27391379857001, 0.0 ] } },
{ "type": "Feature", "properties": { "Name": "kml_110", "Hawker_Name": "Telok Blangah Rise Blk 36 (Telok Blangah Rise Market) " }, "geometry": { "type": "Point", "coordinates": [ 103.82211725658, 1.27271579716508, 0.0 ] } },
{ "type": "Feature", "properties": { "Name": "kml_111", "Hawker_Name": "Tiong Bahru Market " }, "geometry": { "type": "Point", "coordinates": [ 103.832348785334005, 1.28508825756819, 0.0 ] } },
{ "type": "Feature", "properties": { "Name": "kml_112", "Hawker_Name": "Toa Payoh Lorong 1 Blk 127 (Toa Payoh West Market and Food Court) " }, "geometry": { "type": "Point", "coordinates": [ 103.844731621959994, 1.33809268551386, 0.0 ] } },
{ "type": "Feature", "properties": { "Name": "kml_113", "Hawker_Name": "Toa Payoh Lorong 4 Blk 74 (Toa Payoh Vista Market) " }, "geometry": { "type": "Point", "coordinates": [ 103.851999137527002, 1.33454816495637, 0.0 ] } },
{ "type": "Feature", "properties": { "Name": "kml_114", "Hawker_Name": "Toa Payoh Lorong 4 Blk 93 " }, "geometry": { "type": "Point", "coordinates": [ 103.849513484035, 1.3384747524617, 0.0 ] } },
{ "type": "Feature", "properties": { "Name": "kml_115", "Hawker_Name": "Toa Payoh Lorong 5 Blk 75 " }, "geometry": { "type": "Point", "coordinates": [ 103.852941556274999, 1.33603882157063, 0.0 ] } },
{ "type": "Feature", "properties": { "Name": "kml_116", "Hawker_Name": "Toa Payoh Lorong 7 Blk 22 (Kim Keat Palm Market and Food Centre) " }, "geometry": { "type": "Point", "coordinates": [ 103.857036007166002, 1.33523145909678, 0.0 ] } },
{ "type": "Feature", "properties": { "Name": "kml_117", "Hawker_Name": "Toa Payoh Lorong 8 Blk 210 " }, "geometry": { "type": "Point", "coordinates": [ 103.854395279214003, 1.3402608349586, 0.0 ] } },
{ "type": "Feature", "properties": { "Name": "kml_118", "Hawker_Name": "Upper Boon Keng Road Blk 17 (Blk 17 Upper Boon Keng Market and Food Centre) " }, "geometry": { "type": "Point", "coordinates": [ 103.871620273635003, 1.31502804429519, 0.0 ] } },
{ "type": "Feature", "properties": { "Name": "kml_119", "Hawker_Name": "Upper Cross Street Blk 531A (Hong Lim Food Centre and Market) " }, "geometry": { "type": "Point", "coordinates": [ 103.845818885585004, 1.28524640047048, 0.0 ] } },
{ "type": "Feature", "properties": { "Name": "kml_120", "Hawker_Name": "West Coast Drive Blk 502 (Ayer Rajah Market) " }, "geometry": { "type": "Point", "coordinates": [ 103.759166093857999, 1.31188972115897, 0.0 ] } },
{ "type": "Feature", "properties": { "Name": "kml_121", "Hawker_Name": "West Coast Drive Blk 503 (Ayer Rajah Food Centre) " }, "geometry": { "type": "Point", "coordinates": [ 103.759751321018996, 1.31180301004196, 0.0 ] } },
{ "type": "Feature", "properties": { "Name": "kml_122", "Hawker_Name": "Whampoa Drive Blk 90 (Whampoa Drive Makan Place/Whampoa Food Centre) " }, "geometry": { "type": "Point", "coordinates": [ 103.855137696534996, 1.32294306204189, 0.0 ] } },
{ "type": "Feature", "properties": { "Name": "kml_123", "Hawker_Name": "Whampoa Drive Blk 91/92 (Whampoa Drive Makan Place/Whampoa Market) " }, "geometry": { "type": "Point", "coordinates": [ 103.854068062859994, 1.32342175143826, 0.0 ] } },
{ "type": "Feature", "properties": { "Name": "kml_124", "Hawker_Name": "Yishun Park Hawker Centre " }, "geometry": { "type": "Point", "coordinates": [ 103.844747581861, 1.42501763803265, 0.0 ] } },
{ "type": "Feature", "properties": { "Name": "kml_125", "Hawker_Name": "Yishun Ring Road Blk 104/105 (Chong Pang Market and Food Centre) " }, "geometry": { "type": "Point", "coordinates": [ 103.828537609942003, 1.43144768831222, 0.0 ] } }
]
}
